Latitude;Longitude;Time;Date;Number of Sats;GPS Speed (Kn);GPS True Heading;GPS Magnetic Variation;HDOP;C Magnetic Heading;C True Heading;Pitch Angle;Roll Angle;C Inside Temp (c);DFS Depth (m);DTB Height (m);Total Water Column (m);Batt Percent;Power Watts;Watt-Hours;Batt Volts;Batt Ampers;Batt State;Time to Empty;Current Step;Dist To Next (m);Next Speed (kn);Vehicle Speed (kn);Motor Speed CMD;Next Heading;Next Long;Next Lat;Next Depth (m);Depth Goal (m);Vehicle State;Error State;Distance to Track (m);Fin Pitch R;Fin Pitch L;Pitch Goal;Fin Yaw T;Fin Yaw B;Yaw Goal;Fin Roll;DVL-Depth (m);DVL -Altitude (m);DVL -Water Column (m);DVL-FixType;DVL-FixQuality;DVL-Temperature;Conductivity (mmhos/cm);Temperature (c);Salinity (ppt);Sound Speed (m/s);Date m/d/y   ;Time hh:mm:ss;Temp C;SpCond mS/cm;Sal ppt;Depth feet;pH;pH mV;Turbid+ NTU;Chl ug/L;BGA-PC cells/mL;ODOsat %;ODO mg/L;Battery volts;ROSEM Command Type;
37.2386685;-107.909269;10:30:17.59;6/11/2019;10;0.348;175.97;9.1917861322305;0.83;154.6;160.67;3.51;-2.96;19.8;.00;.69;.69;96;21;519.2;16.3;-1.3;D;1659.3;0;271.377;2.5;0;128;176.19;-107.90906479;37.23623469;0;0;1;N;200.3163;78;78;11;48;48;141.3229;0;9999.99;.72;0.847;2;9;18.7;0;18.7000007629395;0.22;1478.52954;06/11/19;10:15:37;16.23;0.460;0.22;-6.267;9.26;-129.5;0.7;-4.2;-3907;81.0;7.95;12.5;;
37.238667;-107.909268333333;10:30:18.61;6/11/2019;10;0.439;175.97;9.1917861322305;0.83;151.7;157.82;3.71;-2.75;19.7;.00;.72;.72;96;21;519.2;16.3;-1.3;D;1659.3;0;271.232;2.5;0;128;176.18;-107.90906479;37.23623469;0;0;1;N;200.1729;79;79;11;59;59;141.3086;0;9999.99;.75;0.877;2;9;18.7;0;18.7000007629395;0.22;1478.52954;06/11/19;10:15:39;16.24;0.460;0.22;-6.266;9.22;-127.1;-0.6;-1.0;-1755;81.3;7.97;12.4;;
37.2386648333333;-107.909267833333;10:30:19.61;6/11/2019;10;0.358;175.97;9.1917861322305;0.83;148;154.21;4.93;0.01;19.7;.01;.73;.74;96;23;519.2;16.3;-1.4;D;1536.5;0;270.878;2.5;0.36;184;176.21;-107.90906479;37.23623469;0;0;1;N;200.1729;87;87;11;215;215;176.2046;0;9999.99;.76;0.887;2;9;18.7;0;18.7000007629395;0.22;1478.52954;06/11/19;10:15:39;16.24;0.460;0.22;-6.266;9.22;-127.1;-0.6;-1.0;-1755;81.3;7.97;12.4;;
37.2386595;-107.909267333333;10:30:20.61;6/11/2019;10;0.978;175.97;9.1917861322305;0.83;148.1;154.31;4.56;7.61;19.8;.03;.72;.75;96;23;519.2;16.3;-1.4;D;1536.5;0;270.626;2.5;0.45;184;176.21;-107.90906479;37.23623469;0;0;1;N;200.1729;84;84;11;215;215;176.2117;0;9999.99;.77;0.897;2;9;18.7;0;18.7000007629395;0.22;1478.53172;06/11/19;10:15:40;16.24;0.461;0.22;-6.266;9.23;-127.4;-0.2;-1.8;-179;81.4;7.98;12.6;;
37.2386503333333;-107.909258333333;10:30:21.61;6/11/2019;10;1.595;161.78;9.1917861322305;0.83;157.6;163.64;1.86;4.5;19.7;.01;.77;.79;96;45;519.2;16.3;-2.7;D;781.6;0;269.934;2.5;0.75;184;176.22;-107.90906479;37.23623469;0;0;1;N;200.1729;70;70;11;182;182;176.2143;0;9999.99;.80;0.927;2;9;18.7;0;18.7000007629395;0.22;1478.53336;06/11/19;10:15:42;16.26;0.462;0.22;-6.256;9.18;-124.5;-0.9;-6.8;-1742;81.4;7.98;12.7;;
37.238641;-107.909252333333;10:30:22.61;6/11/2019;10;1.794;163.22;9.1917861322305;0.83;160.7;166.72;2.78;4.9;19.8;.00;.85;.85;96;51;519.2;16.3;-3.1;D;691.1;0;268.689;2.5;1.11;184;176.37;-107.90906479;37.23623469;0;0;1;N;200.1729;72;72;11;169;169;176.3719;0;9999.99;.87;0.997;2;9;18.6;0;18.7000007629395;0.22;1478.53336;06/11/19;10:15:42;16.26;0.462;0.22;-6.256;9.18;-124.5;-0.9;-6.8;-1742;81.4;7.98;12.7;;
37.2386316666667;-107.909249666667;10:30:23.61;6/11/2019;10;1.93;166.12;9.1917861322305;0.83;165.8;171.82;2.57;5.22;19.7;.00;.87;.87;96;51;519.2;16.3;-3.1;D;691.1;0;267.453;2.5;1.38;184;176.47;-107.90906479;37.23623469;0;0;1;N;200.1729;72;72;11;146;146;176.4662;0;9999.99;.89;1.017;2;9;18.6;0;18.6000003814697;0.22;1478.21146;06/11/19;10:15:43;16.28;0.462;0.22;-6.202;9.14;-122.7;-0.5;-0.8;-1542;81.5;7.99;12.4;;
37.2386212269505;-107.90924803399;10:30:24.61;6/11/2019;10;2.013;170.95;9.1917861322305;0.83;168.7;174.74;3.84;4.19;19.7;.01;1.00;1.01;96;51;519.2;16.3;-3.1;D;691.1;0;265.868;2.5;1.63;184;176.5;-107.90906479;37.23623469;0;0;1;N;200.1729;80;80;11;134;134;176.4981;0;9999.99;1.03;1.157;2;9;18.6;0;18.6000003814697;0.22;1478.21176;06/11/19;10:15:45;16.32;0.462;0.22;-6.227;9.13;-122.0;-0.7;-4.9;-1327;81.6;7.99;12.5;;
37.2386116666667;-107.9092465;10:30:25.61;6/11/2019;10;2.133;174.04;9.1917861322305;0.83;170.6;176.67;2.81;5.65;19.7;.01;1.12;1.13;96;51;519.2;16.3;-3.1;D;691.1;0;264.966;2.5;1.82;184;176.51;-107.90906479;37.23623469;0;0;1;N;200.1729;74;74;11;128;128;176.5063;0;9999.99;1.15;1.277;2;9;18.6;0;18.6000003814697;0.22;1478.21176;06/11/19;10:15:45;16.32;0.462;0.22;-6.227;9.13;-122.0;-0.7;-4.9;-1327;81.6;7.99;12.5;;
37.2386013333333;-107.909245666667;10:30:26.61;6/11/2019;10;2.233;176.52;9.1917861322305;0.83;172.3;178.39;2.51;5.8;19.7;.00;1.22;1.22;96;47;519.1;16.3;-2.9;D;736.9;0;263.879;2.5;1.96;184;176.51;-107.90906479;37.23623469;0;0;1;N;200.1729;71;71;11;120;120;176.5154;0;9999.99;1.24;1.367;2;9;18.6;0;18.6000003814697;0.22;1478.21195;06/11/19;10:15:47;16.33;0.463;0.22;-6.219;9.12;-121.1;-1.2;-5.6;-2565;81.7;8.00;12.4;;
37.2385898293015;-107.909245243305;10:30:27.63;6/11/2019;10;2.2;178.35;9.1917861322305;0.83;170.6;176.67;2.08;6.4;19.7;.00;1.29;1.29;96;47;519.1;16.3;-2.9;D;736.9;0;262.368;2.5;2.02;184;176.51;-107.90906479;37.23623469;0;0;1;N;200.1729;69;69;11;126;126;176.5164;0;9999.99;1.31;1.437;2;9;18.5;0;18.6000003814697;0.22;1478.21195;06/11/19;10:15:47;16.33;0.463;0.22;-6.219;9.12;-121.1;-1.2;-5.6;-2565;81.7;8.00;12.4;;
37.2385791215509;-107.909243206124;10:30:28.66;6/11/2019;10;2.2;178.28;9.1917861322305;0.83;169.7;175.76;2.93;7.13;19.8;.00;1.42;1.42;96;47;519.1;16.3;-2.9;D;737.7;0;261.169;2.5;2.1;184;176.53;-107.90906479;37.23623469;0;0;1;N;200.1729;73;73;11;130;130;176.5075;0;9999.99;1.44;1.567;2;9;18.5;0;18.5;0.22;1477.89187;06/11/19;10:15:48;16.34;0.462;0.22;-6.203;9.10;-119.9;-1.5;-4.0;-2841;81.8;8.01;12.4;;
37.2385700626399;-107.909244457964;10:30:29.66;6/11/2019;10;2.222;179.68;9.1917861322305;0.83;172.7;178.8;2.91;6.51;19.7;.00;1.63;1.63;96;47;519.1;16.3;-2.9;D;737.7;0;260.170;2.5;2.19;184;176.49;-107.90906479;37.23623469;0;0;1;N;1.124118E-03;74;74;11;113;113;175.2836;0;9999.99;1.65;1.777;2;9;18.5;0;18.5;0.22;1477.89177;06/11/19;10:15:49;16.33;0.462;0.22;-6.195;9.12;-121.5;-1.1;-3.0;-3556;82.0;8.02;12.6;;
37.2385605628951;-107.909245424016;10:30:30.67;6/11/2019;11;2.183;179.85;9.1917861322305;0.8;170.8;176.87;3.02;5.84;19.7;.00;1.99;1.99;96;47;519.1;16.3;-2.9;D;737.7;0;259.121;2.5;2.19;184;176.46;-107.90906479;37.23623469;0;0;1;N;0.1940439;75;75;11;116;116;174.1853;0;9999.99;2.01;2.137;2;9;18.5;0;18.5;0.22;1477.89181;06/11/19;10:15:51;16.34;0.462;0.22;-6.206;9.05;-117.4;-0.5;-2.1;-1696;82.1;8.04;12.5;;
37.2385494077833;-107.909245562832;10:30:31.67;6/11/2019;11;2.266;180.11;9.1917861322305;0.8;170.4;176.46;2.94;7.22;19.7;.00;2.30;2.30;96;47;519.1;16.3;-2.9;D;738.6;0;257.883;2.5;2.18;185;176.44;-107.90906479;37.23623469;0;0;1;N;0.3333422;75;75;11;115;115;173.5482;0;9999.99;2.32;2.447;2;9;18.5;0;18.5;0.22;1477.89181;06/11/19;10:15:51;16.34;0.462;0.22;-6.206;9.05;-117.4;-0.5;-2.1;-1696;82.1;8.04;12.5;;
37.2385383969963;-107.909245734654;10:30:32.69;6/11/2019;11;2.192;179.24;9.1917861322305;0.8;171.4;177.48;2.72;6.14;19.7;.00;2.59;2.59;96;47;519.1;16.3;-2.9;D;738.6;0;256.662;2.5;2.2;185;176.42;-107.90906479;37.23623469;0;0;1;N;0.4047628;73;73;11;109;109;172.9158;0;9999.99;2.61;2.737;2;9;18.4;0;18.3999996185303;0.22;1477.57173;06/11/19;10:15:53;16.34;0.462;0.22;-6.233;9.05;-117.4;-1.2;-1.3;-2995;82.2;8.05;12.4;;
37.2385275257951;-107.909245901061;10:30:33.69;6/11/2019;11;2.21;179.2;9.1917861322305;0.8;169.5;175.55;2.09;6.75;19.7;.00;2.59;2.59;96;47;519.1;16.3;-2.9;D;738.6;0;255.457;2.5;2.26;185;176.4;-107.90906479;37.23623469;0;0;1;N;0.5007426;70;70;11;114;114;172.284;0;9999.99;2.61;2.737;2;9;18.4;0;18.3999996185303;0.22;1477.57181;06/11/19;10:15:54;16.34;0.462;0.22;-6.230;9.02;-115.7;-0.8;-3.4;-3608;82.3;8.06;12.4;;
37.2385176666667;-107.909246333333;10:30:34.69;6/11/2019;11;2.253;179.09;9.1917861322305;0.8;168.8;174.85;2.42;6.71;19.8;.00;2.75;2.75;96;47;519.1;16.3;-2.9;D;738.6;0;254.318;2.5;2.23;186;176.4;-107.90906479;37.23623469;0;0;1;N;0.5873132;72;72;11;116;116;172.3362;0;9999.99;2.78;2.907;2;9;18.4;0;18.3999996185303;0.22;1477.57181;06/11/19;10:15:54;16.34;0.462;0.22;-6.230;9.02;-115.7;-0.8;-3.4;-3608;82.3;8.06;12.4;;
37.238507;-107.9092465;10:30:35.69;6/11/2019;11;2.203;178.19;9.1917861322305;0.8;167.5;173.53;3.31;6.87;19.8;.00;2.74;2.75;96;49;519.1;16.3;-3;D;717;0;253.216;2.5;2.23;186;176.39;-107.90906479;37.23623469;0;0;1;N;0.6640912;73;73;11;122;122;171.7893;0;9999.99;2.77;2.897;2;9;18.4;0;18.3999996185303;0.22;1477.57148;06/11/19;10:15:56;16.35;0.462;0.22;-6.213;9.02;-115.6;-1.7;-3.1;194;82.4;8.07;12.4;;
37.2384961666667;-107.909246166667;10:30:36.69;6/11/2019;11;2.27;177.68;9.1917861322305;0.8;167.5;173.53;2.16;8;19.8;.00;2.69;2.69;96;49;519.1;16.3;-3;D;717;0;252.035;2.5;2.23;186;176.37;-107.90906479;37.23623469;0;0;1;N;0.7280878;74;74;11;117;117;171.3345;0;9999.99;2.72;2.847;2;9;18.4;0;18.3999996185303;0.22;1477.57164;06/11/19;10:15:57;16.35;0.463;0.22;-6.239;9.01;-115.2;-1.0;3.7;-2425;82.5;8.07;12.3;;
37.2384845182285;-107.909245272595;10:30:37.69;6/11/2019;11;2.218;176.67;9.1917861322305;0.8;166.1;172.12;3;5.84;19.8;.00;2.61;2.61;96;49;519.1;16.3;-3;D;717;0;250.681;2.5;2.28;186;176.35;-107.90906479;37.23623469;0;0;1;N;0.7623464;75;75;11;121;121;170.5438;0;9999.99;2.63;2.757;2;9;18.4;0;18.3999996185303;0.22;1477.57164;06/11/19;10:15:57;16.35;0.463;0.22;-6.239;9.01;-115.2;-1.0;3.7;-2425;82.5;8.07;12.3;;
37.2384736793206;-107.909244130114;10:30:38.69;6/11/2019;11;2.252;175.6;9.1917861322305;0.8;166.5;172.53;2.91;6.98;19.8;.00;2.59;2.59;96;50;519.1;16.3;-3.1;D;696.4;0;249.471;2.5;2.3;187;176.35;-107.90906479;37.23623469;0;0;1;N;0.7357192;74;74;11;116;116;170.765;0;9999.99;2.61;2.737;2;9;18.3;0;18.2999992370605;0.22;1477.25072;06/11/19;10:15:59;16.35;0.462;0.22;-6.198;9.00;-114.5;-0.9;-3.2;-1999;82.6;8.08;12.5;;
37.2384630511875;-107.909243087793;10:30:39.69;6/11/2019;11;2.293;175.74;9.1917861322305;0.8;165.4;171.42;2.99;7.11;19.8;.00;2.63;2.63;96;50;519.1;16.3;-3.1;D;696.4;0;248.286;2.5;2.24;187;176.36;-107.90906479;37.23623469;0;0;1;N;0.7189207;75;75;11;127;127;170.8831;0;9999.99;2.66;2.787;2;9;18.3;0;18.2999992370605;0.22;1477.25069;06/11/19;10:16:00;16.36;0.462;0.22;-6.218;8.99;-113.6;-1.9;-4.0;-3988;82.6;8.08;12.3;;
37.238452353898;-107.909242110887;10:30:40.69;6/11/2019;11;2.27;175.12;9.1917861322305;0.8;165.4;171.42;2.21;7.85;19.8;.00;2.63;2.63;96;50;519.1;16.3;-3.1;D;696.4;0;247.094;2.5;2.27;187;176.36;-107.90906479;37.23623469;0;0;1;N;0.6868926;72;72;11;127;127;170.9935;0;9999.99;2.66;2.787;2;9;18.3;0;18.2999992370605;0.22;1477.25069;06/11/19;10:16:00;16.36;0.462;0.22;-6.218;8.99;-113.6;-1.9;-4.0;-3988;82.6;8.08;12.3;;
37.238440905438;-107.909240702172;10:30:41.69;6/11/2019;11;2.233;173.92;9.1917861322305;0.8;165.4;171.42;2.86;7.08;19.8;.00;2.63;2.63;96;50;519.1;16.3;-3.1;D;696.4;0;245.815;2.5;2.27;187;176.37;-107.90906479;37.23623469;0;0;1;N;0.7299922;74;74;11;127;127;171.3211;0;9999.99;2.66;2.787;2;9;18.3;0;18.2999992370605;0.22;1477.2506;06/11/19;10:16:02;16.35;0.462;0.22;-6.212;8.98;-113.6;-0.8;0.7;-3457;82.7;8.09;12.5;;
37.2384313626082;-107.909239438358;10:30:42.69;6/11/2019;11;2.257;173.59;9.1917861322305;0.8;166.2;172.22;2.78;6.65;19.8;.00;2.63;2.63;96;51;519.0;16.2;-3.1;D;686.8;0;244.749;2.5;2.27;187;176.38;-107.90906479;37.23623469;0;0;1;N;0.6247569;77;77;11;125;125;171.6709;0;9999.99;2.66;2.787;2;9;18.3;0;18.2999992370605;0.22;1477.25051;06/11/19;10:16:03;16.36;0.462;0.22;-6.221;8.97;-112.5;-1.3;-3.6;-1671;82.7;8.09;12.4;;
37.2384205145844;-107.909238045723;10:30:43.70;6/11/2019;11;2.246;174.17;9.1917861322305;0.8;165.7;171.72;3.61;6.93;19.8;.00;3.09;3.09;96;51;519.0;16.2;-3.1;D;686.8;0;243.538;2.5;2.3;188;176.39;-107.90906479;37.23623469;0;0;1;N;0.5778108;79;79;11;128;128;171.9988;0;9999.99;3.12;3.247;2;9;18.3;0;18.2999992370605;0.22;1477.25072;06/11/19;10:16:04;16.35;0.462;0.22;-6.221;8.96;-112.1;-0.8;-2.7;-746;82.8;8.10;12.5;;
37.2384091765537;-107.909236769346;10:30:44.73;6/11/2019;11;2.253;173.73;9.1917861322305;0.8;165.7;171.72;3.68;7.21;19.8;.00;3.24;3.24;96;51;519.0;16.2;-3.1;D;686.8;0;242.272;2.5;2.32;188;176.4;-107.90906479;37.23623469;0;0;1;N;0.5928925;79;79;11;129;129;172.2961;0;9999.99;3.27;3.397;2;9;18.3;0;18.2999992370605;0.22;1477.25071;06/11/19;10:16:05;16.36;0.462;0.22;-6.231;8.97;-113.0;-1.9;0.7;-3284;82.9;8.11;12.4;;
37.2383981936426;-107.909235532706;10:30:45.73;6/11/2019;11;2.295;174.06;9.1917861322305;0.8;165.8;171.82;3.59;6.35;19.8;.00;3.51;3.51;96;52;519.0;16.2;-3.2;D;666;0;241.046;2.5;2.3;188;176.4;-107.90906479;37.23623469;0;0;1;N;0.558592;79;79;11;130;130;172.5406;0;9999.99;3.53;3.657;2;9;18.3;0;18.2999992370605;0.22;1477.25046;06/11/19;10:16:06;16.37;0.463;0.22;-6.238;8.95;-111.4;-2.0;-5.3;-2151;82.9;8.11;12.5;;
37.2383875061037;-107.909234449635;10:30:46.73;6/11/2019;11;2.235;174.29;9.1917861322305;0.8;166.7;172.73;3;8;19.8;.00;3.77;3.77;96;52;519.0;16.2;-3.2;D;666;0;239.854;2.5;2.31;188;176.41;-107.90906479;37.23623469;0;0;1;N;0.5321201;75;75;11;127;127;172.7292;0;9999.99;3.80;3.927;2;9;18.3;0;18.2999992370605;0.22;1477.25048;06/11/19;10:16:07;16.38;0.462;0.22;-6.240;8.93;-110.6;-1.4;-1.3;-826;83.0;8.12;12.4;;
37.238378321201;-107.909233467363;10:30:47.73;6/11/2019;11;2.317;174.14;9.1917861322305;0.8;166.3;172.32;3.21;6.37;19.8;.00;3.92;3.92;96;52;519.0;16.2;-3.2;D;666;0;238.830;2.5;2.33;188;176.42;-107.90906479;37.23623469;0;0;1;N;0.4614003;76;76;11;129;129;172.9012;0;9999.99;3.95;4.077;2;9;18.3;0;18.2999992370605;0.22;1477.25053;06/11/19;10:16:08;16.39;0.462;0.22;-6.241;8.97;-112.8;-1.2;4.0;-1424;83.1;8.12;12.4;;
37.2383675027426;-107.909232337102;10:30:48.73;6/11/2019;12;2.268;174.65;9.1917861322305;0.8;167.5;173.53;2.51;7.25;19.7;.00;3.70;3.70;96;52;519.0;16.2;-3.2;D;666;0;237.623;2.5;2.32;188;176.42;-107.90906479;37.23623469;0;0;1;N;0.4308832;72;72;11;125;125;173.1172;0;9999.99;3.73;3.857;2;9;18.2;0;18.2000007629395;0.22;1476.92887;06/11/19;10:16:09;16.39;0.462;0.22;-6.261;8.94;-111.0;-1.6;-3.1;-3083;83.1;8.12;12.4;;
37.2383565080133;-107.909231468045;10:30:49.73;6/11/2019;12;2.299;175.72;9.1917861322305;0.8;166.6;172.63;3.42;7.46;19.8;.00;3.68;3.68;96;53;519.0;16.2;-3.2;D;656;0;236.398;2.5;2.3;188;176.42;-107.90906479;37.23623469;0;0;1;N;0.4229076;75;75;11;128;128;173.1231;0;9999.99;3.71;3.837;2;9;18.2;0;18.2000007629395;0.22;1476.92882;06/11/19;10:16:10;16.40;0.462;0.22;-6.242;8.92;-110.1;-1.4;-2.1;-2024;83.1;8.12;12.4;;
37.238345829039;-107.909230817611;10:30:50.73;6/11/2019;12;2.302;175.83;9.1917861322305;0.8;168.1;174.14;3.29;6.77;19.8;.00;3.60;3.60;96;53;519.0;16.2;-3.2;D;656;0;235.209;2.5;2.32;188;176.42;-107.90906479;37.23623469;0;0;1;N;0.4122511;76;76;11;125;125;173.0321;0;9999.99;3.63;3.757;2;9;18.2;0;18.2000007629395;0.22;1476.9287;06/11/19;10:16:11;16.40;0.462;0.22;-6.228;8.97;-112.6;-1.6;-2.9;-1132;83.1;8.12;12.3;;
37.2383355095852;-107.909230165968;10:30:51.73;6/11/2019;12;2.264;176.52;9.1917861322305;0.8;167.4;173.43;3.77;7.86;19.8;.00;3.40;3.40;96;53;519.0;16.2;-3.2;D;656;0;234.060;2.5;2.28;188;176.41;-107.90906479;37.23623469;0;0;1;N;0.4303248;80;80;11;125;125;172.9488;0;9999.99;3.42;3.547;2;9;18.2;0;18.2000007629395;0.22;1476.92854;06/11/19;10:16:12;16.40;0.462;0.22;-6.224;8.93;-110.5;-1.1;-0.4;-3395;83.1;8.12;12.6;;
37.2383250247413;-107.909229648537;10:30:52.73;6/11/2019;12;2.224;176.42;9.1917861322305;0.8;168.3;174.34;3.38;6.35;19.8;.00;3.52;3.52;96;52;518.9;16.2;-3.2;D;664;0;232.894;2.5;2.27;189;176.41;-107.90906479;37.23623469;0;0;1;N;0.4487308;77;77;11;121;121;172.7686;0;9999.99;3.54;3.667;2;9;18.2;0;18.2000007629395;0.22;1476.92855;06/11/19;10:16:13;16.40;0.462;0.22;-6.260;8.91;-109.3;-1.8;-3.2;-1891;83.1;8.13;12.4;;
37.2383132236954;-107.909228826872;10:30:53.73;6/11/2019;12;2.261;177.23;9.1917861322305;0.8;169;175.05;3.21;8.7;19.8;.00;3.88;3.89;96;52;518.9;16.2;-3.2;D;664;0;231.580;2.5;2.26;189;176.4;-107.90906479;37.23623469;0;0;1;N;0.5320957;76;76;11;119;119;172.7295;0;9999.99;3.91;4.037;2;9;18.2;0;18.2000007629395;0.22;1476.92865;06/11/19;10:16:14;16.40;0.462;0.22;-6.236;8.89;-108.3;-1.6;-1.9;-2839;83.2;8.13;12.6;;
37.238304040373;-107.909228687521;10:30:54.75;6/11/2019;12;2.339;176.82;9.1917861322305;0.8;168.8;174.85;3.53;7.58;19.9;.00;4.14;4.14;96;52;518.9;16.2;-3.2;D;664;0;230.560;2.5;2.24;189;176.39;-107.90906479;37.23623469;0;0;1;N;0.4878424;78;78;11;117;117;172.3847;0;9999.99;4.17;4.297;2;9;18.2;0;18.2000007629395;0.22;1476.9288;06/11/19;10:16:15;16.40;0.462;0.22;-6.265;8.94;-111.0;-1.5;-0.9;292;83.2;8.13;12.4;;
37.2382935142647;-107.909228344191;10:30:55.75;6/11/2019;12;2.233;176.99;9.1917861322305;0.8;168.8;174.85;3.21;7.64;19.9;.00;4.29;4.29;96;52;518.9;16.2;-3.2;D;664;0;229.390;2.5;2.27;189;176.38;-107.90906479;37.23623469;0;0;1;N;0.5265868;76;76;11;116;116;172.092;0;9999.99;4.31;4.437;2;9;18.2;0;18.2000007629395;0.22;1476.92877;06/11/19;10:16:16;16.40;0.462;0.22;-6.226;8.90;-108.8;-0.9;1.8;-2169;83.2;8.13;12.6;;
37.2382818600128;-107.909227941004;10:30:56.77;6/11/2019;12;2.175;176.54;9.1917861322305;0.8;168.2;174.24;3.83;8.1;19.9;.00;4.41;4.42;96;54;518.9;16.2;-3.3;D;650.2;0;228.094;2.5;2.29;190;176.37;-107.90906479;37.23623469;0;0;1;N;0.6671823;80;80;11;117;117;171.7672;0;9999.99;4.44;4.567;2;9;18.2;0;18.2000007629395;0.22;1476.92877;06/11/19;10:16:17;16.41;0.462;0.22;-6.244;8.89;-108.3;-1.4;-2.4;-374;83.2;8.13;12.5;;
37.2382718524472;-107.909227433753;10:30:57.77;6/11/2019;12;2.206;175.97;9.1917861322305;0.8;168.3;174.34;3.65;7.34;19.8;.00;4.57;4.57;96;54;518.9;16.2;-3.3;D;650.2;0;226.981;2.5;2.3;190;176.36;-107.90906479;37.23623469;0;0;1;N;0.6895153;79;79;11;116;116;171.6084;0;9999.99;4.60;4.727;2;9;18.2;0;18.2000007629395;0.22;1476.92891;06/11/19;10:16:18;16.41;0.462;0.22;-6.264;8.88;-107.4;-1.6;-0.2;-4792;83.3;8.14;12.6;;
37.2382613250775;-107.909227136333;10:30:58.78;6/11/2019;12;2.408;176.59;9.1917861322305;0.8;167.2;173.23;3.38;7.58;19.8;.00;4.65;4.65;96;54;518.9;16.2;-3.3;D;650.2;0;225.811;2.5;2.32;190;176.35;-107.90906479;37.23623469;0;0;1;N;0.7332049;77;77;11;119;119;171.2982;0;9999.99;4.68;4.807;2;9;18.2;0;18.2000007629395;0.22;1476.92879;06/11/19;10:16:19;16.42;0.462;0.22;-6.258;8.91;-109.5;-1.7;-1.7;-2417;83.3;8.14;12.3;;
37.2382503183958;-107.909226802094;10:30:59.81;6/11/2019;12;2.281;176.66;9.1917861322305;0.8;167.5;173.53;3.61;8.9;19.9;.00;4.69;4.69;96;54;518.9;16.2;-3.3;D;650.2;0;224.587;2.5;2.33;190;176.34;-107.90906479;37.23623469;0;0;1;N;0.7770591;79;79;11;117;117;170.9868;0;9999.99;4.72;4.847;2;9;18.2;0;18.2000007629395;0.22;1476.92868;06/11/19;10:16:20;16.41;0.462;0.22;-6.253;8.88;-107.7;-1.0;-0.2;-366;83.3;8.14;12.5;;
37.2382398323164;-107.909226087737;10:31:00.81;6/11/2019;12;2.313;175.7;9.1917861322305;0.8;166.9;172.93;4.47;7.93;19.9;.00;4.68;4.68;96;55;518.9;16.2;-3.4;D;634.7;0;223.420;2.5;2.32;190;176.34;-107.90906479;37.23623469;0;0;1;N;0.78719;84;84;11;119;119;170.9147;0;9999.99;4.71;4.837;2;9;18.2;0;18.2000007629395;0.22;1476.92867;06/11/19;10:16:21;16.41;0.462;0.22;-6.250;8.87;-107.3;-0.9;-2.0;-817;83.4;8.15;12.4;;
37.2382291765806;-107.909225291552;10:31:01.81;6/11/2019;12;2.354;176.18;9.1917861322305;0.8;167.2;173.23;3.65;7.2;19.9;.00;4.79;4.79;96;55;518.9;16.2;-3.4;D;634.7;0;222.233;2.5;2.31;190;176.33;-107.90906479;37.23623469;0;0;1;N;0.7868538;79;79;11;118;118;170.917;0;9999.99;4.82;4.947;2;9;18.2;0;18.2000007629395;0.22;1476.92882;06/11/19;10:16:22;16.41;0.462;0.22;-6.260;8.86;-106.5;-1.6;-2.1;-3546;83.4;8.15;12.4;;
37.2382180211467;-107.909224573948;10:31:02.81;6/11/2019;12;2.42;176.18;9.1917861322305;0.8;166.8;172.83;3.21;8.3;19.8;.00;4.86;4.86;96;55;518.9;16.2;-3.4;D;634.7;0;220.991;2.5;2.3;190;176.33;-107.90906479;37.23623469;0;0;1;N;0.8014147;78;78;11;122;122;170.8139;0;9999.99;4.89;5.017;2;9;18.2;0;18.2000007629395;0.22;1476.92869;06/11/19;10:16:23;16.42;0.462;0.22;-6.246;8.90;-108.6;-0.7;1.0;-2570;83.4;8.15;12.4;;
37.2382069934286;-107.909223697988;10:31:03.81;6/11/2019;12;2.304;174.86;9.1917861322305;0.8;166.2;172.22;2.84;7.73;19.8;.00;4.88;4.88;96;55;518.9;16.2;-3.4;D;630.7;0;219.762;2.5;2.33;190;176.33;-107.90906479;37.23623469;0;0;1;N;0.7982667;75;75;11;119;119;170.8361;0;9999.99;4.91;5.037;2;9;18.1;0;18.1000003814697;0.22;1476.60595;06/11/19;10:16:24;16.42;0.463;0.22;-6.246;8.86;-106.7;-1.5;-2.6;-4304;83.4;8.15;12.6;;
37.2381959632514;-107.909222728446;10:31:04.81;6/11/2019;12;2.382;175.79;9.1917861322305;0.8;167.1;173.13;3.6;7.72;19.9;.00;4.56;4.56;96;55;518.9;16.2;-3.4;D;630.7;0;218.533;2.5;2.35;190;176.33;-107.90906479;37.23623469;0;0;1;N;0.7861217;77;77;11;119;119;170.9225;0;9999.99;4.59;4.717;2;9;18.1;0;18.1000003814697;0.22;1476.6059;06/11/19;10:16:25;16.42;0.463;0.22;-6.238;8.86;-106.4;-2.1;-2.8;-2617;83.5;8.16;12.4;;
37.2381854396096;-107.909221847804;10:31:05.81;6/11/2019;12;2.318;175.05;9.1917861322305;0.8;165.1;171.12;3.58;8.4;19.8;.00;4.12;4.12;96;55;518.9;16.2;-3.4;D;630.7;0;217.360;2.5;2.39;190;176.33;-107.90906479;37.23623469;0;0;1;N;0.7817267;78;78;11;126;126;170.9534;0;9999.99;4.16;4.287;2;9;18.1;0;18.1000003814697;0.22;1476.60568;06/11/19;10:16:26;16.42;0.462;0.22;-6.246;8.85;-105.6;-1.3;-5.6;-1888;83.5;8.16;12.4;;
37.2381744635294;-107.909220692696;10:31:06.81;6/11/2019;12;2.296;173.98;9.1917861322305;0.8;165.9;171.92;3.69;7.41;19.9;.00;3.81;3.81;96;55;518.9;16.2;-3.4;D;630.7;0;216.135;2.5;2.36;190;176.34;-107.90906479;37.23623469;0;0;1;N;0.7517571;80;80;11;123;123;171.1662;0;9999.99;3.84;3.967;2;9;18.1;0;18.1000003814697;0.22;1476.6057;06/11/19;10:16:27;16.42;0.462;0.22;-6.253;8.88;-107.6;-1.6;-3.1;-3067;83.5;8.16;12.5;;
37.2381636460542;-107.909219362208;10:31:07.81;6/11/2019;12;2.322;173.77;9.1917861322305;0.8;164.7;170.72;3.62;8.4;19.8;.00;3.40;3.40;96;55;518.8;16.2;-3.4;D;632.1;0;214.927;2.5;2.34;190;176.35;-107.90906479;37.23623469;0;0;1;N;0.7073461;79;79;11;125;125;171.4817;0;9999.99;3.43;3.557;2;9;18.1;0;18.1000003814697;0.22;1476.60574;06/11/19;10:16:28;16.42;0.462;0.22;-6.260;8.85;-105.8;-1.5;-3.2;-4273;83.6;8.17;12.5;;
37.2381526691789;-107.909218375757;10:31:08.81;6/11/2019;11;2.529;174.82;9.1917861322305;0.84;165.9;171.92;3.7;6.78;19.8;.00;3.23;3.23;96;55;518.8;16.2;-3.4;D;632.1;0;213.704;2.5;2.32;190;176.35;-107.90906479;37.23623469;0;0;1;N;0.6932321;79;79;11;126;126;171.5819;0;9999.99;3.26;3.387;2;9;18.1;0;18.1000003814697;0.22;1476.60562;06/11/19;10:16:29;16.42;0.463;0.22;-6.239;8.84;-105.6;-2.0;-5.1;-1009;83.6;8.17;12.5;;
37.2381413583782;-107.909217382901;10:31:09.81;6/11/2019;12;2.431;174.91;9.1917861322305;0.84;164.9;170.92;3.46;8.9;19.8;.00;3.24;3.24;96;55;518.8;16.2;-3.4;D;632.1;0;212.443;2.5;2.31;191;176.35;-107.90906479;37.23623469;0;0;1;N;0.6820095;78;78;11;130;130;171.6616;0;9999.99;3.27;3.397;2;9;18.1;0;18.1000003814697;0.22;1476.60607;06/11/19;10:16:30;16.42;0.462;0.22;-6.262;8.89;-108.3;-1.2;-1.6;-1588;83.6;8.17;12.5;;
37.238129980541;-107.909216399303;10:31:10.81;6/11/2019;12;2.338;175.05;9.1917861322305;0.84;166.4;172.42;3.69;7.94;19.9;.00;3.31;3.31;96;56;518.8;16.2;-3.4;D;619.5;0;211.175;2.5;2.34;191;176.36;-107.90906479;37.23623469;0;0;1;N;0.6678782;81;81;11;122;122;171.762;0;9999.99;3.34;3.467;2;9;18.1;0;18.1000003814697;0.22;1476.60619;06/11/19;10:16:31;16.42;0.462;0.22;-6.263;8.85;-105.8;-2.1;-1.4;-3129;83.6;8.17;12.4;;
37.2381188291236;-107.909215544671;10:31:11.84;6/11/2019;11;2.41;174.99;9.1917861322305;0.84;166.1;172.12;4.29;8.1;19.8;.00;3.45;3.46;96;56;518.8;16.2;-3.4;D;619.5;0;209.933;2.5;2.33;191;176.36;-107.90906479;37.23623469;0;0;1;N;0.6701593;83;83;11;125;125;171.7459;0;9999.99;3.49;3.617;2;9;18.1;0;18.1000003814697;0.22;1476.60567;06/11/19;10:16:32;16.42;0.462;0.22;-6.251;8.83;-104.7;-1.9;-2.7;-1068;83.6;8.17;12.3;;
37.238106967807;-107.909214072048;10:31:12.86;6/11/2019;11;2.393;175.13;9.1917861322305;0.84;167;173.03;3.97;8.4;19.8;.00;3.74;3.75;96;56;518.8;16.2;-3.4;D;619.5;0;208.608;2.5;2.34;191;176.37;-107.90906479;37.23623469;0;0;1;N;0.6159565;81;81;11;123;123;172.1317;0;9999.99;3.78;3.907;2;9;18.1;0;18.1000003814697;0.22;1476.60579;06/11/19;10:16:33;16.42;0.463;0.22;-6.262;8.82;-104.1;-1.8;-2.8;413;83.7;8.18;12.6;;
37.2380954252518;-107.90921328375;10:31:13.86;6/11/2019;10;2.407;176.54;9.1917861322305;0.84;168.1;174.14;3.95;7.02;19.8;.00;3.95;3.95;96;56;518.8;16.2;-3.4;D;619.5;0;207.323;2.5;2.36;191;176.36;-107.90906479;37.23623469;0;0;1;N;0.6233293;85;85;11;120;120;172.079;0;9999.99;3.99;4.117;2;9;18.1;0;18.1000003814697;0.22;1476.60582;06/11/19;10:16:34;16.42;0.463;0.22;-6.281;8.86;-106.6;-2.1;-3.1;-3319;83.7;8.18;12.3;;
37.2380841627099;-107.909211883879;10:31:14.86;6/11/2019;11;2.417;175.97;9.1917861322305;0.84;167.8;173.84;3.86;7.79;19.9;.00;4.02;4.02;96;56;518.8;16.2;-3.4;D;617.2;0;206.065;2.5;2.32;191;176.38;-107.90906479;37.23623469;0;0;1;N;0.5768723;80;80;11;121;121;172.41;0;9999.99;4.05;4.177;2;9;18.1;0;18.1000003814697;0.22;1476.60579;06/11/19;10:16:35;16.42;0.463;0.22;-6.271;8.82;-104.5;-1.6;-3.0;-5230;83.8;8.19;12.4;;
37.2380727988345;-107.90921076411;10:31:15.86;6/11/2019;10;2.338;175.98;9.1917861322305;0.84;168;174.04;4.35;8.1;19.9;.00;4.18;4.18;96;56;518.8;16.2;-3.4;D;617.2;0;204.798;2.5;2.34;191;176.38;-107.90906479;37.23623469;0;0;1;N;0.5525379;83;83;11;121;121;172.5834;0;9999.99;4.21;4.337;2;9;18.1;0;18.1000003814697;0.22;1476.6056;06/11/19;10:16:36;16.43;0.462;0.22;-6.239;8.82;-104.1;-1.6;-0.5;-3511;83.8;8.18;12.3;;
37.238062067982;-107.909209693626;10:31:16.88;6/11/2019;10;2.363;175.87;9.1917861322305;0.84;168.3;174.34;4.12;8.3;19.9;.00;4.33;4.33;96;56;518.8;16.2;-3.4;D;617.2;0;203.601;2.5;2.38;191;176.39;-107.90906479;37.23623469;0;0;1;N;0.5289162;82;82;11;121;121;172.7517;0;9999.99;4.37;4.497;2;9;18.1;0;18.1000003814697;0.22;1476.60563;06/11/19;10:16:37;16.43;0.463;0.22;-6.246;8.81;-103.5;-1.1;-1.6;-3647;83.8;8.19;12.5;;
37.2380507656504;-107.909208541319;10:31:17.89;6/11/2019;10;2.343;175.58;9.1917861322305;0.84;167.5;173.53;4.33;9.4;19.8;.00;4.34;4.34;96;56;518.7;16.2;-3.4;D;617.1;0;202.340;2.5;2.35;191;176.39;-107.90906479;37.23623469;0;0;1;N;0.5026627;83;83;11;125;125;172.939;0;9999.99;4.37;4.497;2;9;18.1;0;18.1000003814697;0.22;1476.60577;06/11/19;10:16:38;16.44;0.463;0.22;-6.243;8.84;-105.2;-1.6;-2.6;-3195;83.9;8.19;12.5;;
37.2380397037953;-107.909207463065;10:31:18.92;6/11/2019;11;2.424;176.12;9.1917861322305;0.84;168.6;174.64;3.87;8.6;19.9;.00;4.31;4.31;96;56;518.7;16.2;-3.4;D;617.1;0;201.107;2.5;2.39;191;176.4;-107.90906479;37.23623469;0;0;1;N;0.4818655;80;80;11;121;121;173.0875;0;9999.99;4.35;4.477;2;9;18.1;0;18.1000003814697;0.22;1476.60581;06/11/19;10:16:39;16.43;0.463;0.22;-6.265;8.81;-103.9;-0.3;-5.0;-1422;83.9;8.19;12.4;;
37.2380270409348;-107.909206674498;10:31:19.92;6/11/2019;11;2.626;177.34;9.1917861322305;0.8;167.4;173.43;4.12;8.6;19.8;.00;4.27;4.27;96;56;518.7;16.2;-3.4;D;617.1;0;199.697;2.5;2.37;191;176.39;-107.90906479;37.23623469;0;0;1;N;0.4993588;82;82;11;125;125;172.9627;0;9999.99;4.31;4.437;2;9;18.1;0;18.1000003814697;0.22;1476.6059;06/11/19;10:16:40;16.44;0.463;0.22;-6.261;8.81;-103.4;-1.3;-3.6;-2722;83.8;8.19;12.5;;
37.2380165539437;-107.909205951054;10:31:20.94;6/11/2019;10;2.348;176.6;9.1917861322305;0.84;168.7;174.74;3.6;8.6;19.9;.00;4.17;4.17;96;56;518.7;16.2;-3.4;D;617.1;0;198.529;2.5;2.39;191;176.39;-107.90906479;37.23623469;0;0;1;N;0.5044252;79;79;11;120;120;172.9264;0;9999.99;4.21;4.337;2;9;18.1;0;18.1000003814697;0.22;1476.60584;06/11/19;10:16:41;16.44;0.463;0.22;-6.261;8.85;-106.2;-1.4;-3.0;-4645;83.9;8.19;12.5;;
37.2380055778043;-107.909204808534;10:31:21.94;6/11/2019;10;2.344;176.39;9.1917861322305;0.84;168.3;174.34;3.8;8.8;19.8;.00;4.22;4.22;96;57;518.7;16.2;-3.5;D;616;0;197.305;2.5;2.36;192;176.4;-107.90906479;37.23623469;0;0;1;N;0.4779123;80;80;11;122;122;173.1157;0;9999.99;4.25;4.377;2;9;18.1;0;18.1000003814697;0.22;1476.60566;06/11/19;10:16:42;16.43;0.463;0.22;-6.251;8.82;-104.4;-2.5;-1.2;-2321;83.9;8.20;12.4;;
37.237994867593;-107.909204020028;10:31:22.94;6/11/2019;10;2.364;176.78;9.1917861322305;0.84;168.7;174.74;4.08;8.3;19.8;.00;4.44;4.44;96;57;518.7;16.2;-3.5;D;616;0;196.112;2.5;2.39;192;176.4;-107.90906479;37.23623469;0;0;1;N;0.4783812;81;81;11;120;120;173.1124;0;9999.99;4.47;4.597;2;9;18.1;0;18.1000003814697;0.22;1476.60582;06/11/19;10:16:43;16.43;0.463;0.22;-6.270;8.80;-103.0;-2.2;-1.8;-1077;84.0;8.20;12.3;;
37.2379840142628;-107.909202886258;10:31:23.94;6/11/2019;10;2.395;176.39;9.1917861322305;0.84;168.6;174.64;4.34;8;19.8;.00;4.69;4.70;96;57;518.7;16.2;-3.5;D;616;0;194.901;2.5;2.41;192;176.4;-107.90906479;37.23623469;0;0;1;N;0.4517451;82;82;11;123;123;173.3025;0;9999.99;4.73;4.857;2;9;18.1;0;18.1000003814697;0.22;1476.60582;06/11/19;10:16:44;16.43;0.462;0.22;-6.273;8.78;-102.0;-2.0;-7.7;-1113;84.0;8.21;12.5;;
37.2379721147804;-107.909201677358;10:31:24.94;6/11/2019;11;2.436;176.81;9.1917861322305;0.84;168.5;174.54;4.44;8.1;19.9;.00;4.84;4.84;96;58;518.6;16.2;-3.6;D;598.2;0;193.574;2.5;2.44;192;176.41;-107.90906479;37.23623469;0;0;1;N;0.4248843;78;78;11;123;123;173.4942;0;9999.99;4.88;5.007;2;9;18.1;0;18.1000003814697;0.22;1476.60604;06/11/19;10:16:45;16.43;0.463;0.22;-6.270;8.85;-105.8;-1.7;-4.1;-4119;84.0;8.21;12.3;;
37.2379608019685;-107.909200787469;10:31:25.94;6/11/2019;10;2.447;176.88;9.1917861322305;0.84;168;174.04;4.21;9.4;19.8;.00;4.91;4.91;96;58;518.6;16.2;-3.6;D;598.2;0;192.313;2.5;2.43;192;176.41;-107.90906479;37.23623469;0;0;1;N;0.4233488;82;82;11;125;125;173.5052;0;9999.99;4.95;5.077;2;9;18.1;0;18.1000003814697;0.22;1476.60595;06/11/19;10:16:46;16.44;0.463;0.22;-6.271;8.81;-103.8;-1.6;-4.2;-2487;84.0;8.20;12.5;;
37.2379487575928;-107.909199607975;10:31:26.94;6/11/2019;10;2.441;176.73;9.1917861322305;0.84;168.2;174.24;3.89;9.3;19.9;.00;4.94;4.94;96;58;518.6;16.2;-3.6;D;598.2;0;190.970;2.5;2.43;192;176.42;-107.90906479;37.23623469;0;0;1;N;0.3980592;80;80;11;125;125;173.6856;0;9999.99;4.98;5.107;2;9;18.1;0;18.1000003814697;0.22;1476.6058;06/11/19;10:16:47;16.44;0.463;0.22;-6.268;8.79;-102.6;-1.1;-4.2;-875;84.0;8.20;12.3;;
37.2379383883978;-107.909198642639;10:31:27.94;6/11/2019;10;2.51;176.47;9.1917861322305;0.84;168;174.04;4.91;9.6;19.9;.00;4.96;4.96;96;58;518.6;16.2;-3.6;D;598.2;0;189.814;2.5;2.48;192;176.42;-107.90906479;37.23623469;0;0;1;N;0.3798133;83;83;11;122;122;173.8162;0;9999.99;5.00;5.127;2;9;18.1;0;18.1000003814697;0.22;1476.60576;06/11/19;10:16:48;16.43;0.463;0.22;-6.260;8.79;-102.4;-1.6;-1.4;-952;83.9;8.20;12.4;;
37.2379266974021;-107.909197435974;10:31:28.94;6/11/2019;10;2.401;176.26;9.1917861322305;0.84;168.8;174.85;4.01;7.59;19.9;.00;4.96;4.96;96;58;518.6;16.2;-3.6;D;599.1;0;188.510;2.5;2.49;192;176.43;-107.90906479;37.23623469;0;0;1;N;0.3555509;81;81;11;124;124;173.9894;0;9999.99;5.00;5.127;2;9;18;0;18.1000003814697;0.22;1476.60584;06/11/19;10:16:49;16.43;0.462;0.22;-6.267;8.81;-103.8;-1.7;-0.8;-23;83.9;8.19;12.4;;
37.2379153432585;-107.909196389334;10:31:29.94;6/11/2019;12;2.477;176.3;9.1917861322305;0.78;169.2;175.25;4.53;8.4;19.9;.00;4.97;4.98;96;58;518.6;16.2;-3.6;D;599.1;0;187.244;2.5;2.5;192;176.43;-107.90906479;37.23623469;0;0;1;N;0.3356614;84;84;11;123;123;174.1318;0;9999.99;5.01;5.137;2;9;18;0;18;0.22;1476.28234;06/11/19;10:16:50;16.44;0.463;0.22;-6.268;8.81;-103.6;-0.9;-4.7;-2022;83.9;8.20;12.5;;
37.2379043688152;-107.909195590975;10:31:30.94;6/11/2019;12;2.509;177.56;9.1917861322305;0.78;168.8;174.85;4.51;9.5;19.9;.00;5.01;5.01;96;58;518.6;16.2;-3.6;D;599.1;0;186.022;2.5;2.5;192;176.43;-107.90906479;37.23623469;0;0;1;N;0.3414566;84;84;11;124;124;174.0902;0;9999.99;5.05;5.177;2;9;18;0;18;0.22;1476.28211;06/11/19;10:16:51;16.43;0.463;0.22;-6.260;8.78;-102.1;-1.8;-5.6;-1958;83.9;8.20;12.4;;
37.2378925325616;-107.90919505229;10:31:31.95;6/11/2019;12;2.43;178.03;9.1917861322305;0.78;168.5;174.54;4.43;8.6;19.9;.00;5.10;5.10;96;58;518.6;16.2;-3.5;D;603.4;0;184.705;2.5;2.49;192;176.42;-107.90906479;37.23623469;0;0;1;N;0.3734399;84;84;11;124;124;173.8614;0;9999.99;5.14;5.267;2;9;18;0;18;0.22;1476.28207;06/11/19;10:16:52;16.43;0.463;0.22;-6.264;8.78;-101.9;-1.0;-5.1;-3356;83.9;8.20;12.6;;
37.2378820306942;-107.909193994997;10:31:32.95;6/11/2019;12;2.272;177.52;9.1917861322305;0.75;168.8;174.85;3.89;9.2;19.9;.00;5.10;5.10;96;58;518.6;16.2;-3.5;D;603.4;0;183.534;2.5;2.49;192;176.43;-107.90906479;37.23623469;0;0;1;N;0.3497934;80;80;11;124;124;174.0307;0;9999.99;5.14;5.267;2;9;18;0;18;0.22;1476.28202;06/11/19;10:16:53;16.44;0.463;0.22;-6.269;8.82;-104.4;-1.5;-5.1;-1004;84.0;8.20;12.6;;
37.2378714050295;-107.909193107067;10:31:33.95;6/11/2019;12;2.466;177.39;9.1917861322305;0.75;168.4;174.44;3.88;8.3;19.9;.00;5.22;5.22;96;58;518.6;16.2;-3.5;D;603.4;0;182.350;2.5;2.48;192;176.43;-107.90906479;37.23623469;0;0;1;N;0.3434183;80;80;11;126;126;174.076;0;9999.99;5.26;5.387;2;9;18;0;18;0.22;1476.28218;06/11/19;10:16:54;16.44;0.463;0.22;-6.266;8.77;-101.6;-2.0;-1.2;-1477;84.1;8.22;12.6;;
37.2378599258723;-107.909192322112;10:31:34.95;6/11/2019;12;2.509;177.57;9.1917861322305;0.75;169.3;175.35;4.34;9;20;.00;5.33;5.33;96;58;518.6;16.2;-3.5;D;603.4;0;181.071;2.5;2.48;192;176.43;-107.90906479;37.23623469;0;0;1;N;0.3519168;82;82;11;124;124;174.0152;0;9999.99;5.37;5.497;2;9;18;0;18;0.22;1476.28211;06/11/19;10:16:55;16.44;0.463;0.22;-6.286;8.80;-103.3;-0.5;-0.1;-2865;84.2;8.22;12.4;;
37.2378485454571;-107.909191154335;10:31:35.95;6/11/2019;12;2.348;176.86;9.1917861322305;0.75;169.6;175.65;4.36;7.88;19.9;.00;5.42;5.42;96;58;518.5;16.2;-3.6;D;599;0;179.802;2.5;2.48;192;176.43;-107.90906479;37.23623469;0;0;1;N;0.325097;82;82;11;123;123;174.2072;0;9999.99;5.46;5.587;2;9;18;0;18;0.22;1476.28197;06/11/19;10:16:56;16.43;0.462;0.22;-6.279;8.78;-101.9;-1.0;-3.7;18;84.1;8.22;12.6;;
37.237837430248;-107.909190319789;10:31:36.95;6/11/2019;12;2.434;176.86;9.1917861322305;0.78;169.6;175.65;4.27;9;19.9;.00;5.52;5.52;96;58;518.5;16.2;-3.6;D;599;0;178.564;2.5;2.45;192;176.43;-107.90906479;37.23623469;0;0;1;N;0.3264741;84;84;11;125;125;174.1973;0;9999.99;5.56;5.687;2;9;18;0;18;0.22;1476.28207;06/11/19;10:16:57;16.43;0.463;0.22;-6.279;8.77;-101.2;-1.1;-6.3;-3351;84.2;8.22;12.6;;
37.2378253768749;-107.909189392016;10:31:37.97;6/11/2019;12;2.411;177.52;9.1917861322305;0.78;169.2;175.25;5.04;8.8;19.9;.00;5.57;5.57;96;58;518.5;16.2;-3.6;D;599;0;177.221;2.5;2.45;192;176.43;-107.90906479;37.23623469;0;0;1;N;0.324979;87;87;11;123;123;174.2079;0;9999.99;5.61;5.737;2;9;18;0;18;0.22;1476.28203;06/11/19;10:16:59;16.43;0.463;0.22;-6.265;8.81;-103.7;-1.9;3.6;-941;84.1;8.22;12.4;;
37.2378145590105;-107.909188823115;10:31:38.98;6/11/2019;12;2.444;177.79;9.1917861322305;0.78;169.4;175.45;4.11;8;20;.00;5.65;5.65;96;58;518.5;16.2;-3.6;D;599;0;176.017;2.5;2.47;192;176.42;-107.90906479;37.23623469;0;0;1;N;0.3480993;82;82;11;123;123;174.0425;0;9999.99;5.69;5.817;2;9;18;0;18;0.22;1476.28203;06/11/19;10:16:59;16.43;0.463;0.22;-6.265;8.81;-103.7;-1.9;3.6;-941;84.1;8.22;12.4;;
37.2378031899311;-107.909188539779;10:31:39.98;6/11/2019;12;2.44;178.58;9.1917861322305;0.78;170.4;176.46;4.3;8.9;19.9;.00;5.78;5.78;96;58;518.5;16.2;-3.6;D;596;0;174.754;2.5;2.49;192;176.41;-107.90906479;37.23623469;0;0;1;N;0.3975451;82;82;11;117;117;173.6891;0;9999.99;5.82;5.947;2;9;18;0;18;0.22;1476.28206;06/11/19;10:17:00;16.44;0.462;0.22;-6.264;8.78;-102.2;-0.9;-4.8;-778;84.1;8.21;12.3;;
37.2377909351393;-107.909187811363;10:31:40.98;6/11/2019;12;2.498;178.37;9.1917861322305;0.78;170.3;176.36;4.64;8.3;19.8;.00;5.78;5.78;96;58;518.5;16.2;-3.6;D;596;0;173.390;2.5;2.5;192;176.4;-107.90906479;37.23623469;0;0;1;N;0.4139055;85;85;11;116;116;173.5726;0;9999.99;5.82;5.947;2;9;18;0;18;0.22;1476.28212;06/11/19;10:17:02;16.44;0.464;0.22;-6.283;8.76;-100.7;-1.6;-8.6;-3182;84.0;8.21;12.4;;
37.2377794194335;-107.909187174502;10:31:41.98;6/11/2019;12;2.474;178.58;9.1917861322305;0.75;169.8;175.86;4.43;7.61;19.9;.00;5.85;5.85;96;58;518.5;16.2;-3.6;D;596;0;172.108;2.5;2.52;192;176.39;-107.90906479;37.23623469;0;0;1;N;0.43516;84;84;11;118;118;173.4205;0;9999.99;5.89;6.017;2;9;18;0;18;0.22;1476.28212;06/11/19;10:17:02;16.44;0.464;0.22;-6.283;8.76;-100.7;-1.6;-8.6;-3182;84.0;8.21;12.4;;
37.2377685550705;-107.909186788351;10:31:42.98;6/11/2019;12;2.53;178.56;9.1917861322305;0.75;170.2;176.26;4.2;8.2;19.9;.00;5.91;5.91;96;58;518.4;16.2;-3.6;D;599;0;170.901;2.5;2.47;192;176.38;-107.90906479;37.23623469;0;0;1;N;0.4734267;85;85;11;115;115;173.1475;0;9999.99;5.95;6.077;2;9;18;0;18;0.22;1476.28212;06/11/19;10:17:04;16.44;0.463;0.22;-6.275;8.80;-103.2;-0.5;-1.2;-2660;84.0;8.20;12.5;;
37.2377570759118;-107.909185977816;10:31:43.98;6/11/2019;12;2.458;178.22;9.1917861322305;0.75;170.8;176.87;4.5;8.1;19.9;.00;6.04;6.04;96;58;518.4;16.2;-3.6;D;599;0;169.622;2.5;2.45;192;176.37;-107.90906479;37.23623469;0;0;1;N;0.4758193;84;84;11;112;112;173.1305;0;9999.99;6.08;6.207;2;9;18;0;18;0.22;1476.28202;06/11/19;10:17:05;16.44;0.463;0.22;-6.279;8.77;-101.5;-1.8;-2.2;-1054;84.0;8.20;12.5;;
37.2377453671364;-107.909185238212;10:31:44.98;6/11/2019;12;2.492;178.69;9.1917861322305;0.75;170.6;176.67;4.61;8.5;19.9;.00;6.09;6.09;96;58;518.4;16.2;-3.6;D;599;0;168.319;2.5;2.46;192;176.37;-107.90906479;37.23623469;0;0;1;N;0.4908527;85;85;11;112;112;173.023;0;9999.99;6.13;6.257;2;9;18;0;18;0.22;1476.28202;06/11/19;10:17:05;16.44;0.463;0.22;-6.279;8.77;-101.5;-1.8;-2.2;-1054;84.0;8.20;12.5;;
37.2377327924006;-107.909184446138;10:31:46.00;6/11/2019;12;2.604;179.16;9.1917861322305;0.75;169.1;175.15;4.27;9.1;19.9;.00;6.09;6.09;96;58;518.4;16.2;-3.6;D;599;0;166.919;2.5;2.48;192;176.36;-107.90906479;37.23623469;0;0;1;N;0.5097955;83;83;11;118;118;172.8881;0;9999.99;6.13;6.257;2;9;18;0;18;0.22;1476.28203;06/11/19;10:17:06;16.44;0.462;0.22;-6.275;8.76;-100.5;-0.6;-3.0;-3275;84.0;8.20;12.5;;
37.2377214028809;-107.909184142755;10:31:47.00;6/11/2019;12;2.414;179.11;9.1917861322305;0.75;169.2;175.25;4.56;8.6;19.9;.00;6.15;6.15;96;59;518.4;16.2;-3.6;D;593.7;0;165.653;2.5;2.5;192;176.34;-107.90906479;37.23623469;0;0;1;N;0.5594588;84;84;11;116;116;172.5339;0;9999.99;6.19;6.317;2;9;18;0;18;0.22;1476.28197;06/11/19;10:17:08;16.45;0.462;0.22;-6.270;8.74;-99.5;-1.3;-3.5;-1809;84.0;8.20;12.5;;
37.2377109440567;-107.909183458643;10:31:48.02;6/11/2019;11;2.427;178.67;9.1917861322305;0.78;169.1;175.15;3.75;8;19.9;.00;6.21;6.21;96;59;518.4;16.2;-3.6;D;593.7;0;164.489;2.5;2.51;192;176.34;-107.90906479;37.23623469;0;0;1;N;0.5689654;79;79;11;116;116;172.4662;0;9999.99;6.25;6.377;2;9;18;0;18;0.22;1476.28197;06/11/19;10:17:08;16.45;0.462;0.22;-6.270;8.74;-99.5;-1.3;-3.5;-1809;84.0;8.20;12.5;;
37.2376988710551;-107.909182376368;10:31:49.03;6/11/2019;11;2.375;177.8;9.1917861322305;0.78;169.1;175.15;3.74;8.1;19.9;.00;6.30;6.30;96;59;518.4;16.2;-3.6;D;593.7;0;163.143;2.5;2.46;192;176.34;-107.90906479;37.23623469;0;0;1;N;0.5557398;79;79;11;117;117;172.5604;0;9999.99;6.33;6.457;2;9;18;0;18;0.22;1476.282;06/11/19;10:17:09;16.45;0.463;0.22;-6.277;8.80;-103.1;-0.3;-4.0;-2159;84.0;8.20;12.4;;
37.2376883164257;-107.909181830878;10:31:50.03;6/11/2019;11;2.412;177.6;9.1917861322305;0.78;169.3;175.35;3.73;8.4;19.9;.00;6.35;6.35;96;59;518.4;16.2;-3.6;D;594;0;161.969;2.5;2.46;192;176.33;-107.90906479;37.23623469;0;0;1;N;0.5773715;79;79;11;115;115;172.4062;0;9999.99;6.38;6.507;2;9;18;0;18;0.22;1476.28196;06/11/19;10:17:11;16.45;0.463;0.22;-6.248;8.75;-100.1;-0.9;-5.1;-2366;84.0;8.20;12.4;;
37.2376769850241;-107.90918123749;10:31:51.05;6/11/2019;11;2.389;178.01;9.1917861322305;0.78;169.1;175.15;3.56;8;19.9;.00;6.39;6.39;96;59;518.4;16.2;-3.6;D;594;0;160.708;2.5;2.46;192;176.32;-107.90906479;37.23623469;0;0;1;N;0.6023034;78;78;11;115;115;172.2287;0;9999.99;6.42;6.547;2;9;18;0;18;0.22;1476.28196;06/11/19;10:17:11;16.45;0.463;0.22;-6.248;8.75;-100.1;-0.9;-5.1;-2366;84.0;8.20;12.4;;
37.2376653523871;-107.909180806631;10:31:52.06;6/11/2019;11;2.459;178.94;9.1917861322305;0.78;168.4;174.44;3.87;9.3;19.9;.00;6.45;6.45;96;59;518.4;16.2;-3.6;D;594;0;159.415;2.5;2.46;192;176.31;-107.90906479;37.23623469;0;0;1;N;0.6423502;79;79;11;116;116;171.9436;0;9999.99;6.48;6.607;2;9;18;0;18;0.22;1476.28197;06/11/19;10:17:12;16.45;0.463;0.22;-6.251;8.74;-99.8;-0.7;-3.6;-1873;84.0;8.20;12.3;;
37.2376530891534;-107.909180532164;10:31:53.08;6/11/2019;11;2.484;178.9;9.1917861322305;0.78;168.3;174.34;4.18;9.4;20;.00;6.51;6.51;96;59;518.4;16.2;-3.6;D;594;0;158.052;2.5;2.46;192;176.28;-107.90906479;37.23623469;0;0;1;N;0.7014555;82;82;11;116;116;171.5231;0;9999.99;6.55;6.677;2;9;18;0;18;0.22;1476.282;06/11/19;10:17:14;16.45;0.463;0.22;-6.262;8.73;-99.2;-0.7;-1.8;-2120;84.0;8.20;12.3;;
37.2376429951597;-107.9091801084;10:31:54.08;6/11/2019;11;2.44;178.33;9.1917861322305;0.78;168.4;174.44;3.04;8.4;19.9;.00;6.59;6.59;96;59;518.3;16.2;-3.6;D;592.6;0;156.930;2.5;2.45;192;176.27;-107.90906479;37.23623469;0;0;1;N;0.7297747;75;75;11;115;115;171.3221;0;9999.99;6.62;6.747;2;9;18;0;18;0.22;1476.28202;06/11/19;10:17:15;16.45;0.463;0.22;-6.264;8.77;-101.6;-1.8;1.9;-600;84.0;8.20;12.5;;
37.2376322193429;-107.909179058136;10:31:55.09;6/11/2019;11;2.478;176.62;9.1917861322305;0.78;167.6;173.63;3.73;7.36;19.9;.00;6.65;6.65;96;59;518.3;16.2;-3.6;D;592.6;0;155.728;2.5;2.47;192;176.28;-107.90906479;37.23623469;0;0;1;N;0.7094937;79;79;11;116;116;171.4661;0;9999.99;6.68;6.807;2;9;18;0;18;0.22;1476.28202;06/11/19;10:17:15;16.45;0.463;0.22;-6.264;8.77;-101.6;-1.8;1.9;-600;84.0;8.20;12.5;;
37.2376196006245;-107.909177858275;10:31:56.09;6/11/2019;11;2.376;177.03;9.1917861322305;0.78;167.5;173.53;3.96;8.1;19.9;.00;6.70;6.70;96;59;518.3;16.2;-3.6;D;592.6;0;154.321;2.5;2.46;192;176.28;-107.90906479;37.23623469;0;0;1;N;0.6893513;84;84;11;119;119;171.6091;0;9999.99;6.74;6.867;2;9;18;0;18;0.22;1476.28201;06/11/19;10:17:16;16.45;0.463;0.22;-6.275;8.76;-100.5;-1.2;-1.0;-1181;84.0;8.20;12.5;;
37.2376074237637;-107.909176645833;10:31:57.13;6/11/2019;11;2.487;177.12;9.1917861322305;0.78;166.7;172.73;3.84;8.8;19.9;.00;6.79;6.79;96;59;518.3;16.2;-3.6;D;592.7;0;152.963;2.5;2.46;192;176.29;-107.90906479;37.23623469;0;0;1;N;0.6667783;80;80;11;123;123;171.7698;0;9999.99;6.82;6.947;2;9;18;0;18;0.22;1476.28206;06/11/19;10:17:18;16.45;0.463;0.22;-6.266;8.73;-99.3;-1.8;-1.2;-1682;84.0;8.20;12.4;;
37.2375957335858;-107.909175563468;10:31:58.14;6/11/2019;11;2.483;176.37;9.1917861322305;0.78;165.9;171.92;3.83;9.1;19.9;.00;6.84;6.84;96;59;518.3;16.2;-3.6;D;592.7;0;151.659;2.5;2.48;192;176.29;-107.90906479;37.23623469;0;0;1;N;0.6537948;80;80;11;127;127;171.8619;0;9999.99;6.88;7.007;2;9;17.9;0;18;0.22;1476.28206;06/11/19;10:17:18;16.45;0.463;0.22;-6.266;8.73;-99.3;-1.8;-1.2;-1682;84.0;8.20;12.4;;
37.2375840340576;-107.909174381448;10:31:59.16;6/11/2019;11;2.472;175.91;9.1917861322305;0.78;166.6;172.63;3.76;8;19.9;.00;6.90;6.90;96;59;518.3;16.2;-3.6;D;592.7;0;150.355;2.5;2.46;192;176.3;-107.90906479;37.23623469;0;0;1;N;0.624992;80;80;11;125;125;172.0669;0;9999.99;6.93;7.057;2;9;17.9;0;17.8999996185303;0.22;1475.95754;06/11/19;10:17:19;16.45;0.463;0.22;-6.283;8.72;-98.3;-0.3;-3.8;209;84.0;8.20;12.5;;
37.2375731085248;-107.909173329983;10:32:00.17;6/11/2019;11;2.458;175.66;9.1917861322305;0.78;166.1;172.12;4.51;8.4;19.9;.00;6.95;6.95;96;59;518.3;16.2;-3.6;D;592.7;0;149.136;2.5;2.46;192;176.31;-107.90906479;37.23623469;0;0;1;N;0.6085246;79;79;11;127;127;172.1841;0;9999.99;6.98;7.107;2;9;18;0;17.8999996185303;0.22;1475.95766;06/11/19;10:17:21;16.45;0.463;0.22;-6.264;8.76;-101.0;-2.4;-4.4;-2886;84.0;8.20;12.3;;
37.2375614342304;-107.909172254547;10:32:01.19;6/11/2019;11;2.524;175.89;9.1917861322305;0.78;166.5;172.53;4.13;8;19.9;.00;7.00;7.00;96;59;518.2;16.2;-3.6;D;592;0;147.835;2.5;2.47;192;176.31;-107.90906479;37.23623469;0;0;1;N;0.5907297;82;82;11;126;126;172.3109;0;9999.99;7.04;7.167;2;9;17.9;0;17.8999996185303;0.22;1475.95766;06/11/19;10:17:21;16.45;0.463;0.22;-6.264;8.76;-101.0;-2.4;-4.4;-2886;84.0;8.20;12.3;;
37.2375502637468;-107.909171235974;10:32:02.19;6/11/2019;11;2.548;175.5;9.1917861322305;0.78;166.8;172.83;3.85;8.5;20;.00;7.06;7.06;96;59;518.2;16.2;-3.6;D;592;0;146.589;2.5;2.46;192;176.31;-107.90906479;37.23623469;0;0;1;N;0.5715308;80;80;11;125;125;172.4477;0;9999.99;7.09;7.217;2;9;17.9;0;17.8999996185303;0.22;1475.95758;06/11/19;10:17:22;16.45;0.463;0.22;-6.269;8.74;-99.8;-1.0;-6.7;-1037;84.0;8.20;12.5;;
37.2375380626337;-107.909169969677;10:32:03.19;6/11/2019;11;2.48;175.47;9.1917861322305;0.78;167.2;173.23;3.94;8.8;20;.00;7.10;7.10;96;59;518.2;16.2;-3.6;D;592;0;145.228;2.5;2.46;192;176.32;-107.90906479;37.23623469;0;0;1;N;0.5442767;81;81;11;125;125;172.642;0;9999.99;7.13;7.257;2;9;18;0;17.8999996185303;0.22;1475.95757;06/11/19;10:17:23;16.45;0.463;0.22;-6.275;8.73;-98.9;-0.1;-1.4;-3493;84.0;8.20;12.4;;
37.2375272651392;-107.909168857874;10:32:04.19;6/11/2019;11;2.43;175.97;9.1917861322305;0.78;166.5;172.53;4.95;7.31;20;.00;7.14;7.15;96;58;518.2;16.2;-3.6;D;595.7;0;144.024;2.5;2.48;192;176.33;-107.90906479;37.23623469;0;0;1;N;0.5208412;89;89;11;127;127;172.8092;0;9999.99;7.19;7.317;2;9;17.9;0;18;0.22;1476.28217;06/11/19;10:17:25;16.44;0.463;0.22;-6.275;8.71;-98.1;-1.0;-0.6;-1743;84.1;8.21;12.4;;
37.2375158763316;-107.909168133015;10:32:05.19;6/11/2019;11;2.445;176.45;9.1917861322305;0.78;165.8;171.82;4.72;9.9;20;.00;7.24;7.25;96;58;518.2;16.2;-3.6;D;595.7;0;142.756;2.5;2.46;192;176.33;-107.90906479;37.23623469;0;0;1;N;0.5305298;82;82;11;122;122;172.7399;0;9999.99;7.28;7.407;2;9;17.9;0;18;0.22;1476.28217;06/11/19;10:17:25;16.44;0.463;0.22;-6.275;8.71;-98.1;-1.0;-0.6;-1743;84.1;8.21;12.4;;
37.2375056350167;-107.909167029067;10:32:06.19;6/11/2019;11;2.506;176.02;9.1917861322305;0.78;166.6;172.63;4.42;7.78;19.9;.00;7.29;7.29;96;58;518.2;16.2;-3.6;D;595.7;0;141.613;2.5;2.48;192;176.34;-107.90906479;37.23623469;0;0;1;N;0.5042067;84;84;11;128;128;172.9276;0;9999.99;7.33;7.457;2;9;17.9;0;17.8999996185303;0.22;1475.9577;06/11/19;10:17:26;16.44;0.463;0.22;-6.273;8.72;-98.4;-1.7;-3.3;-1973;84.1;8.21;12.5;;
37.237493589368;-107.909165814717;10:32:07.19;6/11/2019;12;2.486;176.56;9.1917861322305;0.78;166.1;172.12;5.21;9.2;20;.00;7.35;7.35;96;58;518.2;16.2;-3.6;D;595.7;0;140.270;2.5;2.47;192;176.34;-107.90906479;37.23623469;0;0;1;N;0.4799387;88;88;11;131;131;173.1009;0;9999.99;7.39;7.517;2;9;17.9;0;17.8999996185303;0.22;1475.95783;06/11/19;10:17:28;16.45;0.463;0.22;-6.282;8.74;-99.8;-0.7;-4.4;-3165;84.0;8.21;12.6;;
37.2374817458824;-107.90916475197;10:32:08.19;6/11/2019;12;2.497;175.99;9.1917861322305;0.78;166.3;172.32;4.97;8.1;19.9;.00;7.43;7.43;96;58;518.1;16.2;-3.6;D;597.3;0;138.949;2.5;2.46;192;176.35;-107.90906479;37.23623469;0;0;1;N;0.4613479;83;83;11;129;129;173.2335;0;9999.99;7.47;7.597;2;9;17.9;0;17.8999996185303;0.22;1475.95783;06/11/19;10:17:28;16.45;0.463;0.22;-6.282;8.74;-99.8;-0.7;-4.4;-3165;84.0;8.21;12.6;;
37.2374702582639;-107.90916370744;10:32:09.19;6/11/2019;11;2.493;175.8;9.1917861322305;0.78;167;173.03;5.08;9.3;19.9;.00;7.50;7.50;96;58;518.1;16.2;-3.6;D;597.3;0;137.669;2.5;2.48;192;176.35;-107.90906479;37.23623469;0;0;1;N;0.4431647;87;87;11;123;123;173.3634;0;9999.99;7.54;7.667;2;9;17.9;0;17.8999996185303;0.22;1475.9577;06/11/19;10:17:29;16.44;0.463;0.22;-6.292;8.73;-98.9;-1.4;0.2;-2773;84.1;8.21;12.5;;
37.2374592682714;-107.909163173393;10:32:10.19;6/11/2019;12;2.51;176.88;9.1917861322305;0.78;167.2;173.23;5.39;8.4;19.9;.00;7.60;7.60;96;58;518.1;16.2;-3.6;D;597.3;0;136.446;2.5;2.44;192;176.34;-107.90906479;37.23623469;0;0;1;N;0.4705448;89;89;11;127;127;173.1679;0;9999.99;7.64;7.767;2;9;17.9;0;17.8999996185303;0.22;1475.95762;06/11/19;10:17:31;16.44;0.463;0.22;-6.290;8.70;-97.2;-0.9;-1.1;-3213;84.1;8.21;12.4;;
37.2374469506791;-107.909162199963;10:32:11.20;6/11/2019;12;2.443;176.96;9.1917861322305;0.78;168.3;174.34;4.07;8.2;19.9;.00;7.61;7.61;96;58;518.1;16.2;-3.5;D;600.1;0;135.074;2.5;2.45;192;176.34;-107.90906479;37.23623469;0;0;1;N;0.4677614;81;81;11;126;126;173.1877;0;9999.99;7.65;7.777;2;9;17.9;0;17.8999996185303;0.22;1475.95765;06/11/19;10:17:32;16.44;0.463;0.22;-6.297;8.71;-98.0;-1.4;-3.5;-3178;84.1;8.21;12.6;;
37.237435571069;-107.909161635227;10:32:12.20;6/11/2019;11;2.471;177.15;9.1917861322305;0.78;168.8;174.85;4.41;8.1;19.9;.00;7.64;7.65;96;58;518.1;16.2;-3.5;D;600.1;0;133.808;2.5;2.46;192;176.33;-107.90906479;37.23623469;0;0;1;N;0.4922112;83;83;11;120;120;173.0134;0;9999.99;7.68;7.807;2;9;17.9;0;17.8999996185303;0.22;1475.95756;06/11/19;10:17:33;16.44;0.463;0.22;-6.290;8.77;-101.1;-1.3;-6.5;-3484;84.1;8.21;12.6;;
37.2374226269648;-107.909160552293;10:32:13.22;6/11/2019;11;2.419;177.22;9.1917861322305;0.78;168.2;174.24;3.86;8.1;19.9;.00;7.70;7.71;96;58;518.1;16.2;-3.5;D;600.1;0;132.365;2.5;2.48;192;176.33;-107.90906479;37.23623469;0;0;1;N;0.4855736;80;80;11;122;122;173.0606;0;9999.99;7.74;7.867;2;9;17.9;0;17.8999996185303;0.22;1475.95756;06/11/19;10:17:33;16.44;0.463;0.22;-6.290;8.77;-101.1;-1.3;-6.5;-3484;84.1;8.21;12.6;;
37.2374119844887;-107.909159529587;10:32:14.25;6/11/2019;11;2.453;176.49;9.1917861322305;0.78;168.4;174.44;4.27;9.4;20;.00;7.71;7.71;96;58;518.1;16.2;-3.5;D;600.1;0;131.178;2.5;2.48;192;176.33;-107.90906479;37.23623469;0;0;1;N;0.467549;84;84;11;123;123;173.1893;0;9999.99;7.75;7.877;2;9;17.9;0;17.8999996185303;0.22;1475.95758;06/11/19;10:17:34;16.44;0.463;0.22;-6.279;8.76;-100.5;-0.1;-0.8;-1509;84.0;8.21;12.5;;
37.2374000469515;-107.909158963327;10:32:15.25;6/11/2019;12;2.49;177.4;9.1917861322305;0.78;166.4;172.42;4.63;8.2;20;.00;7.77;7.77;96;58;518.0;16.2;-3.6;D;597.3;0;129.851;2.5;2.51;192;176.32;-107.90906479;37.23623469;0;0;1;N;0.5012971;85;85;11;129;129;172.9486;0;9999.99;7.81;7.937;2;9;17.9;0;17.8999996185303;0.22;1475.95751;06/11/19;10:17:36;16.43;0.463;0.22;-6.288;8.72;-98.7;-0.7;-2.9;16;84.0;8.21;12.6;;
37.2373891629023;-107.909158247835;10:32:16.25;6/11/2019;12;2.43;177.42;9.1917861322305;0.78;168.2;174.24;4.3;8.5;20;.00;7.81;7.82;96;58;518.0;16.2;-3.6;D;597.3;0;128.639;2.5;2.52;192;176.31;-107.90906479;37.23623469;0;0;1;N;0.5061199;83;83;11;122;122;172.914;0;9999.99;7.85;7.977;2;9;17.9;0;17.8999996185303;0.22;1475.95751;06/11/19;10:17:36;16.43;0.463;0.22;-6.288;8.72;-98.7;-0.7;-2.9;16;84.0;8.21;12.6;;
37.2373780823164;-107.909157698444;10:32:17.27;6/11/2019;12;2.627;177.43;9.1917861322305;0.75;167.8;173.84;5.34;8.1;20;.00;7.81;7.82;96;58;518.0;16.2;-3.6;D;597.3;0;127.406;2.5;2.5;192;176.3;-107.90906479;37.23623469;0;0;1;N;0.5325172;89;89;11;123;123;172.7259;0;9999.99;7.86;7.987;2;9;17.9;0;17.8999996185303;0.22;1475.95753;06/11/19;10:17:37;16.43;0.463;0.22;-6.288;8.71;-98.1;-0.2;-4.4;-6385;84.0;8.21;12.5;;
37.2373652291686;-107.909156634881;10:32:18.30;6/11/2019;12;2.51;176.94;9.1917861322305;0.75;167.2;173.23;4.39;8.7;20;.00;7.80;7.81;96;58;518.0;16.2;-3.6;D;598.3;0;125.974;2.5;2.48;192;176.3;-107.90906479;37.23623469;0;0;1;N;0.5262467;83;83;11;125;125;172.7704;0;9999.99;7.85;7.977;2;9;17.9;0;17.8999996185303;0.22;1475.95762;06/11/19;10:17:39;16.43;0.463;0.22;-6.297;8.69;-97.0;-0.7;0.8;-1976;84.0;8.20;12.4;;
37.2373538108069;-107.909155563563;10:32:19.33;6/11/2019;12;2.479;176.53;9.1917861322305;0.75;166.6;172.63;5.38;8.6;20;.00;7.82;7.82;96;58;518.0;16.2;-3.6;D;598.3;0;124.701;2.5;2.46;192;176.31;-107.90906479;37.23623469;0;0;1;N;0.5102893;89;89;11;128;128;172.8843;0;9999.99;7.86;7.987;2;9;17.9;0;17.8999996185303;0.22;1475.95762;06/11/19;10:17:39;16.43;0.463;0.22;-6.297;8.69;-97.0;-0.7;0.8;-1976;84.0;8.20;12.4;;
37.2373421443561;-107.909154564553;10:32:20.34;6/11/2019;12;2.514;176.7;9.1917861322305;0.75;167.7;173.73;3.54;8.9;19.9;.00;7.82;7.82;96;58;518.0;16.2;-3.6;D;598.3;0;123.400;2.5;2.48;192;176.31;-107.90906479;37.23623469;0;0;1;N;0.4971981;78;78;11;124;124;172.9777;0;9999.99;7.86;7.987;2;9;17.9;0;17.8999996185303;0.22;1475.95775;06/11/19;10:17:40;16.43;0.463;0.22;-6.290;8.70;-97.5;0.1;-7.0;-1162;84.0;8.21;12.5;;
37.237330065692;-107.909153160297;10:32:21.34;6/11/2019;12;2.517;176.25;9.1917861322305;0.75;166.5;172.53;4.79;8.3;19.9;.00;7.81;7.81;96;58;518.0;16.2;-3.6;D;598.3;0;122.052;2.5;2.48;192;176.32;-107.90906479;37.23623469;0;0;1;N;0.4570303;86;86;11;130;130;173.2645;0;9999.99;7.85;7.977;2;9;17.9;0;17.8999996185303;0.22;1475.95774;06/11/19;10:17:42;16.43;0.463;0.22;-6.298;8.74;-99.5;0.1;1.2;-1415;84.1;8.21;12.5;;
37.237317986059;-107.909152037372;10:32:22.36;6/11/2019;12;2.482;175.89;9.1917861322305;0.75;166.5;172.53;4.95;8.6;19.9;.00;7.77;7.77;96;58;517.9;16.2;-3.6;D;598.4;0;120.705;2.5;2.49;192;176.33;-107.90906479;37.23623469;0;0;1;N;0.4394735;87;87;11;130;130;173.3897;0;9999.99;7.81;7.937;2;9;17.9;0;17.8999996185303;0.22;1475.95774;06/11/19;10:17:42;16.43;0.463;0.22;-6.298;8.74;-99.5;0.1;1.2;-1415;84.1;8.21;12.5;;
37.2373068568185;-107.909151242075;10:32:23.38;6/11/2019;12;2.473;176.32;9.1917861322305;0.75;168.2;174.24;3.93;7.78;19.9;.00;7.77;7.77;96;58;517.9;16.2;-3.6;D;598.4;0;119.466;2.5;2.47;192;176.33;-107.90906479;37.23623469;0;0;1;N;0.4381064;81;81;11;124;124;173.3995;0;9999.99;7.81;7.937;2;9;17.9;0;17.8999996185303;0.22;1475.95756;06/11/19;10:17:43;16.43;0.463;0.22;-6.294;8.72;-98.3;0.3;-1.1;-2058;84.1;8.21;12.4;;
37.237296416774;-107.909150402065;10:32:24.38;6/11/2019;12;2.454;176.36;9.1917861322305;0.75;167.2;173.23;4.18;8.3;19.9;.00;7.78;7.78;96;58;517.9;16.2;-3.6;D;598.4;0;118.302;2.5;2.48;192;176.33;-107.90906479;37.23623469;0;0;1;N;0.4365654;85;85;11;130;130;173.4105;0;9999.99;7.82;7.947;2;9;17.9;0;17.8999996185303;0.22;1475.95743;06/11/19;10:17:45;16.43;0.463;0.22;-6.304;8.71;-97.7;-1.0;-4.6;-2951;84.1;8.21;12.4;;
37.2372839610582;-107.909149034359;10:32:25.39;6/11/2019;11;2.414;175.86;9.1917861322305;0.79;167.3;173.33;4.93;9.3;19.9;.00;7.81;7.81;96;58;517.9;16.2;-3.6;D;598.4;0;116.912;2.5;2.49;192;176.34;-107.90906479;37.23623469;0;0;1;N;0.4005223;87;87;11;128;128;173.668;0;9999.99;7.85;7.977;2;9;17.9;0;17.8999996185303;0.22;1475.95743;06/11/19;10:17:45;16.43;0.463;0.22;-6.304;8.71;-97.7;-1.0;-4.6;-2951;84.1;8.21;12.4;;
37.2372728053722;-107.909147521279;10:32:26.39;6/11/2019;11;2.436;176.01;9.1917861322305;0.79;168;174.04;4.37;8.8;19.9;.00;7.82;7.82;96;58;517.9;16.2;-3.6;D;598.2;0;115.666;2.5;2.49;192;176.37;-107.90906479;37.23623469;0;0;1;N;0.3420612;83;83;11;127;127;174.0857;0;9999.99;7.86;7.987;2;9;17.9;0;17.8999996185303;0.22;1475.95746;06/11/19;10:17:46;16.42;0.463;0.22;-6.287;8.69;-96.7;-0.9;-0.8;-1925;84.0;8.21;12.5;;
37.2372614831531;-107.909146369976;10:32:27.39;6/11/2019;11;2.498;176.84;9.1917861322305;0.79;167.7;173.73;4.64;8.4;19.9;.00;7.84;7.84;96;58;517.9;16.2;-3.6;D;598.2;0;114.403;2.5;2.49;192;176.38;-107.90906479;37.23623469;0;0;1;N;0.3151525;85;85;11;129;129;174.2782;0;9999.99;7.88;8.007;2;9;17.9;0;17.8999996185303;0.22;1475.95754;06/11/19;10:17:47;16.43;0.463;0.22;-6.288;8.69;-96.7;-0.2;0.9;-1702;84.0;8.21;12.4;;
37.2372491383195;-107.909145614464;10:32:28.42;6/11/2019;11;2.571;177.36;9.1917861322305;0.79;168.6;174.64;4.24;9.2;19.9;.00;7.86;7.86;96;58;517.9;16.2;-3.6;D;598.2;0;113.029;2.5;2.46;192;176.37;-107.90906479;37.23623469;0;0;1;N;0.3288434;82;82;11;125;125;174.1802;0;9999.99;7.90;8.027;2;9;17.9;0;17.8999996185303;0.22;1475.95779;06/11/19;10:17:49;16.43;0.463;0.22;-6.295;8.74;-99.8;-0.3;-2.9;-5282;84.1;8.22;12.4;;
37.2372376709682;-107.909144443993;10:32:29.42;6/11/2019;11;2.668;177.45;9.1917861322305;0.79;169.1;175.15;3.98;7.53;20;.00;7.88;7.88;96;58;517.9;16.2;-3.5;D;599.9;0;111.750;2.5;2.49;192;176.38;-107.90906479;37.23623469;0;0;1;N;0.3025408;81;81;11;124;124;174.3683;0;9999.99;7.93;8.057;2;9;17.9;0;17.8999996185303;0.22;1475.95779;06/11/19;10:17:49;16.43;0.463;0.22;-6.295;8.74;-99.8;-0.3;-2.9;-5282;84.1;8.22;12.4;;
37.2372263086928;-107.909143593238;10:32:30.42;6/11/2019;11;2.542;177.72;9.1917861322305;0.79;168.2;174.24;4.68;8.3;19.9;.00;7.91;7.91;96;58;517.9;16.2;-3.5;D;599.9;0;110.484;2.5;2.49;192;176.38;-107.90906479;37.23623469;0;0;1;N;0.3062268;85;85;11;127;127;174.3419;0;9999.99;7.95;8.077;2;9;17.9;0;17.8999996185303;0.22;1475.95747;06/11/19;10:17:50;16.43;0.463;0.22;-6.300;8.73;-98.9;-0.5;-1.3;-2294;84.1;8.22;12.4;;
37.237214612594;-107.909142751149;10:32:31.44;6/11/2019;12;2.444;177.36;9.1917861322305;0.75;168.7;174.74;4.75;8.6;19.9;.00;7.94;7.94;96;58;517.9;16.2;-3.5;D;599.9;0;109.181;2.5;2.49;192;176.38;-107.90906479;37.23623469;0;0;1;N;0.3081195;85;85;11;125;125;174.3285;0;9999.99;7.98;8.107;2;9;17.9;0;17.8999996185303;0.22;1475.9576;06/11/19;10:17:52;16.42;0.463;0.22;-6.298;8.70;-97.5;-1.4;0.5;-3924;84.1;8.22;12.3;;
37.2372032723738;-107.909142126627;10:32:32.44;6/11/2019;12;2.519;177.65;9.1917861322305;0.74;170.1;176.16;3.9;8.4;19.9;.00;7.98;7.98;96;58;517.9;16.2;-3.5;D;599.9;0;107.919;2.5;2.49;192;176.36;-107.90906479;37.23623469;0;0;1;N;0.3286555;79;79;11;123;123;174.1817;0;9999.99;8.02;8.147;2;9;17.9;0;17.8999996185303;0.22;1475.9576;06/11/19;10:17:52;16.42;0.463;0.22;-6.298;8.70;-97.5;-1.4;0.5;-3924;84.1;8.22;12.3;;
37.2371914068978;-107.909141343597;10:32:33.44;6/11/2019;12;2.563;178.67;9.1917861322305;0.74;168.2;174.24;5.31;8;19.9;.00;7.99;7.99;96;58;517.8;16.2;-3.6;D;594.4;0;106.598;2.5;2.52;192;176.35;-107.90906479;37.23623469;0;0;1;N;0.3449704;84;84;11;129;129;174.065;0;9999.99;8.03;8.157;2;9;17.9;0;17.8999996185303;0.22;1475.95745;06/11/19;10:17:53;16.42;0.463;0.22;-6.305;8.70;-97.2;-0.5;-3.9;-3144;84.1;8.22;12.4;;
37.2371793625997;-107.909140814578;10:32:34.44;6/11/2019;11;2.516;177.73;9.1917861322305;0.82;168.6;174.64;4.35;9;19.9;.00;8.03;8.03;96;58;517.8;16.2;-3.6;D;594.4;0;105.259;2.5;2.5;192;176.33;-107.90906479;37.23623469;0;0;1;N;0.3746765;83;83;11;124;124;173.8526;0;9999.99;8.07;8.197;2;9;17.9;0;17.8999996185303;0.22;1475.95767;06/11/19;10:17:55;16.41;0.463;0.22;-6.288;8.68;-96.3;-0.8;-5.1;-3659;84.1;8.22;12.5;;
37.2371678508667;-107.909140222049;10:32:35.44;6/11/2019;11;2.454;177.07;9.1917861322305;0.82;169.4;175.45;4.02;9.2;19.9;.00;8.05;8.05;96;58;517.8;16.2;-3.6;D;594.4;0;103.978;2.5;2.51;192;176.32;-107.90906479;37.23623469;0;0;1;N;0.3989327;81;81;11;120;120;173.6794;0;9999.99;8.09;8.217;2;9;17.9;0;17.8999996185303;0.22;1475.95767;06/11/19;10:17:55;16.41;0.463;0.22;-6.288;8.68;-96.3;-0.8;-5.1;-3659;84.1;8.22;12.5;;
37.2371566545365;-107.909139849227;10:32:36.44;6/11/2019;12;2.46;177.14;9.1917861322305;0.82;169.3;175.35;4.69;7.84;19.9;.00;8.08;8.08;96;58;517.8;16.2;-3.5;D;601.5;0;102.734;2.5;2.53;192;176.29;-107.90906479;37.23623469;0;0;1;N;0.4400145;82;82;11;119;119;173.3858;0;9999.99;8.12;8.247;2;9;17.9;0;17.8999996185303;0.22;1475.95747;06/11/19;10:17:56;16.40;0.463;0.22;-6.284;8.70;-97.1;-0.1;-2.3;-4160;84.1;8.22;12.5;;
37.2371450749925;-107.909139237593;10:32:37.44;6/11/2019;12;2.48;177.86;9.1917861322305;0.82;168.7;174.74;4.57;8.9;19.9;.00;8.11;8.11;96;58;517.8;16.2;-3.5;D;601.5;0;101.445;2.5;2.56;192;176.27;-107.90906479;37.23623469;0;0;1;N;0.4675101;89;89;11;123;123;173.1896;0;9999.99;8.15;8.276999;2;9;17.9;0;17.8999996185303;0.22;1475.95756;06/11/19;10:17:57;16.41;0.463;0.22;-6.295;8.74;-99.8;-0.8;-3.7;-3228;84.1;8.22;12.5;;
37.2371334336447;-107.909138852409;10:32:38.44;6/11/2019;12;2.516;178.01;9.1917861322305;0.82;169.4;175.45;4.42;8.2;19.9;.00;8.14;8.14;96;58;517.8;16.2;-3.5;D;601.5;0;100.151;2.5;2.51;192;176.25;-107.90906479;37.23623469;0;0;1;N;0.511569;85;85;11;120;120;172.8752;0;9999.99;8.18;8.307;2;9;17.9;0;17.8999996185303;0.22;1475.95751;06/11/19;10:17:58;16.41;0.463;0.22;-6.288;8.73;-98.8;-0.5;-2.2;-2159;84.1;8.22;12.5;;
37.2371211918637;-107.909137905949;10:32:39.44;6/11/2019;11;2.44;177.54;9.1917861322305;0.78;168.9;174.95;4.22;7.86;19.9;.00;8.15;8.15;96;58;517.8;16.2;-3.5;D;601.5;0;98.787;2.5;2.49;192;176.24;-107.90906479;37.23623469;0;0;1;N;0.5091902;82;82;11;119;119;172.8922;0;9999.99;8.20;8.327;2;9;17.9;0;17.8999996185303;0.22;1475.95753;06/11/19;10:18:00;16.41;0.463;0.22;-6.290;8.70;-97.5;-0.8;-4.2;-1699;84.0;8.21;12.5;;
37.2371107721503;-107.90913755428;10:32:40.47;6/11/2019;11;2.492;177.45;9.1917861322305;0.78;167.5;173.53;5.34;8.8;19.9;.00;8.19;8.19;96;58;517.7;16.2;-3.5;D;600.6;0;97.629;2.5;2.5;192;176.22;-107.90906479;37.23623469;0;0;1;N;0.5507633;86;86;11;122;122;172.5957;0;9999.99;8.23;8.356999;2;9;17.8;0;17.8999996185303;0.22;1475.95753;06/11/19;10:18:00;16.41;0.463;0.22;-6.290;8.70;-97.5;-0.8;-4.2;-1699;84.0;8.21;12.5;;
37.2370990784359;-107.90913696415;10:32:41.47;6/11/2019;11;2.463;177.49;9.1917861322305;0.78;168.5;174.54;3.39;8.5;19.9;.00;8.23;8.23;96;58;517.7;16.2;-3.5;D;600.6;0;96.328;2.5;2.49;192;176.2;-107.90906479;37.23623469;0;0;1;N;0.5744089;77;77;11;119;119;172.4273;0;9999.99;8.27;8.397;2;9;17.9;0;17.7999992370605;0.22;1475.6321;06/11/19;10:18:02;16.42;0.464;0.22;-6.290;8.69;-96.9;-1.5;-3.5;-2558;84.1;8.21;12.6;;
